City_ID,City,Lat,Lng,Max Temp,Humidity,Cloudiness,Wind Speed,Date
0,chonchi,-42.6128,-73.8092,12.56,93,75,1.91,1707451367
1,wailua homesteads,22.0669,-159.378,25.24,72,100,4.63,1707451478
2,uturoa,-16.7333,-151.4333,27.81,82,99,6.4,1707451492
3,waitangi,-43.9535,-176.5597,16.57,60,18,8.62,1707451478
4,rongelap,11.1635,166.8941,26.51,84,100,9.48,1707451518
5,margaret river,-33.95,115.0667,28.17,46,0,3.3,1707451488
6,adamstown,-25.066,-130.1015,24.48,94,100,14.91,1707451477
7,vila franca do campo,37.7167,-25.4333,16.23,83,100,9.71,1707451527
8,hawaiian paradise park,19.5933,-154.9731,21.73,90,75,3.6,1707451483
9,sarangpur,23.5667,76.4667,18.11,24,59,3.15,1707451696
10,tyukhtet,56.5389,89.3011,-4.38,83,100,5.4,1707451841
11,ceerigaabo,10.6162,47.368,13.68,74,12,0.41,1707451841
12,longyearbyen,78.2186,15.6401,-12.09,79,20,6.17,1707451475
13,grytviken,-54.2811,-36.5092,5.07,95,95,7.13,1707451481
14,khandyga,62.6667,135.6,-35.7,93,74,0.22,1707451841
15,porto novo,6.4965,2.6036,27.9,88,8,1.29,1707451541
16,salahonda,2.1019,-78.7217,26.86,86,54,2.28,1707451842
17,ta`u,-14.2336,-169.5144,27.6,83,100,5.65,1707451530
18,finley,46.154,-119.0339,8.07,70,100,4.47,1707451842
19,stanley,54.868,-1.6985,2.09,93,100,8.23,1707451475
20,puerto natales,-51.7236,-72.4875,10.77,85,100,4.51,1707451287
21,tiksi,71.6872,128.8694,-24.93,100,100,1.61,1707451481
22,hamilton,39.1834,-84.5333,13.97,58,40,8.23,1707451454
23,albany,42.6001,-73.9662,5.33,62,97,0.45,1707451315
24,ushuaia,-54.8,-68.3,10.81,66,75,11.83,1707451493
25,mitsamiouli,-11.3847,43.2844,28.34,80,99,3.43,1707451843
26,hobyo,5.3505,48.5268,26.28,79,51,8.88,1707451742
27,papatowai,-46.5619,169.4708,14.14,60,100,1.3,1707451475
28,dudinka,69.4058,86.1778,-30.18,95,33,2.24,1707451499
29,mayskiy,47.6931,40.1025,0.92,99,100,1.2,1707451844
30,st. john's,47.5649,-52.7093,-0.68,96,100,8.05,1707451206
31,olonkinbyen,70.9221,-8.7187,-2.88,60,7,5.46,1707451477
32,bilibino,68.0546,166.4372,-26.71,99,100,0.81,1707451484
33,egilsstadir,65.2653,-14.3948,-10.05,79,75,1.03,1707451542
34,ribeira grande,38.5167,-28.7,15.43,82,100,0.89,1707451482
35,whitehorse,60.7161,-135.0538,-15.57,85,0,5.66,1707451494
36,conceicao da barra,-18.5933,-39.7322,23.46,88,100,1.65,1707451845
37,punta del este,-34.9667,-54.95,22.2,97,75,4.47,1707451846
38,gaurela,22.75,81.9,18.24,15,4,2.36,1707451846
39,lebu,-37.6167,-73.65,13.79,89,17,7.48,1707451360
40,noumea,-22.2763,166.4572,29.44,99,100,7.47,1707451529
41,benjamin constant,-4.3831,-70.0311,26.07,97,100,0.56,1707451846
42,gumdag,39.2061,54.5906,10.21,46,13,1.93,1707451499
43,puerto ayora,-0.7393,-90.3518,26.42,93,65,0.89,1707451489
44,codrington,-38.2667,141.9667,19.62,56,8,6.28,1707451478
45,weno,7.4515,151.8468,29.97,74,100,4.63,1707451500
46,gagarin,55.5529,34.9954,-15.52,98,99,1.59,1707451847
47,punta arenas,-53.15,-70.9167,12.06,71,75,6.69,1707451299
48,pacific grove,36.6177,-121.9166,10.79,83,45,1.79,1707451256
49,port alfred,-33.5906,26.891,18.99,91,4,2.88,1707451531
50,tsaratanana,-16.7833,47.65,25.2,86,90,0.83,1707451848
51,bethel,41.3712,-73.414,3.76,80,0,0.45,1707451481
52,antsohihy,-14.8796,47.9875,25.73,92,70,1.07,1707451848
53,port augusta,-32.5,137.7667,32.05,21,0,6.91,1707451499
54,langhirano,44.6127,10.2656,12.12,88,100,1.62,1707451848
55,kudahuvadhoo,2.6708,72.8944,27.8,71,89,6.31,1707451848
56,kone,-21.0595,164.8658,28.85,60,99,4.16,1707451725
57,bredasdorp,-34.5322,20.0403,17.18,81,21,3.0,1707451480
58,lorengau,-2.0226,147.2712,29.52,72,71,6.11,1707451529
59,badger,64.8,-147.5333,-14.24,80,20,0.0,1707451489
60,bure,10.7,37.0667,14.21,59,5,1.55,1707451637
61,georgetown,5.4112,100.3354,31.96,58,20,4.12,1707451480
62,papao,-17.75,-149.55,27.82,83,99,6.91,1707451542
63,wynyard,-41.0,145.7167,23.92,45,43,5.0,1707451850
64,klyuchi,52.2667,79.1667,1.64,98,100,11.5,1707451482
65,severo-yeniseyskiy,60.3725,93.0408,-7.46,93,100,2.68,1707451524
66,kingston,17.997,-76.7936,24.53,69,20,4.63,1707451229
67,makassar,-5.14,119.4221,32.03,66,20,3.6,1707451851
68,dryden,49.7833,-92.7503,2.16,100,100,1.03,1707451480
69,utrik,11.2278,169.8474,26.27,79,97,9.65,1707451498
70,sturgis,41.7992,-85.4192,12.07,64,100,5.66,1707451851
71,avarua,-21.2078,-159.775,28.03,74,75,7.72,1707451477
72,sola,-13.8833,167.55,27.78,86,98,15.61,1707451852
73,kyshtovka,56.555,76.6271,1.3,91,99,9.39,1707451522
74,haiku-pauwela,20.9219,-156.3051,22.92,79,40,5.14,1707451490
75,port macquarie,-31.4333,152.9167,26.61,65,99,5.89,1707451540
76,yellowknife,62.456,-114.3525,-15.4,89,100,2.57,1707451282
77,blackmans bay,-43.0167,147.3167,18.07,71,97,4.83,1707451400
78,horta,38.5333,-28.6333,15.01,82,100,0.89,1707451477
79,vilyuchinsk,52.9306,158.4028,-4.86,71,80,1.21,1707451512
80,bandarbeyla,9.4942,50.8122,25.51,80,37,7.68,1707451727
81,hluti,-27.2167,31.6167,19.71,90,99,0.77,1707451853
82,port-aux-francais,-49.35,70.2167,5.6,77,99,10.49,1707451474
83,amga,60.8953,131.9608,-31.21,95,100,0.37,1707451516
84,selfoss,63.9331,-20.9971,-11.64,81,44,4.65,1707451526
85,iqaluit,63.7506,-68.5145,-23.15,64,75,0.0,1707451482
86,edinburgh of the seven seas,-37.0676,-12.3116,18.83,82,59,8.3,1707451485
87,isangel,-19.55,169.2667,28.06,78,100,5.66,1707451854
88,yuzhno-kurilsk,44.0306,145.8556,-4.24,57,30,2.5,1707451753
89,invercargill,-46.4,168.35,15.57,65,99,4.02,1707451485
90,campbellton,48.0075,-66.6727,-3.3,97,99,0.77,1707451780
91,melfi,40.9965,15.6514,8.05,91,4,3.47,1707451855
92,tazovsky,67.4667,78.7,-20.01,99,100,4.88,1707451490
93,hermanus,-34.4187,19.2345,17.46,81,56,3.57,1707451479
94,nova sintra,14.8667,-24.7167,21.64,70,0,6.23,1707451522
95,ust'-kut,56.7938,105.7672,-6.76,89,100,1.38,1707451855
96,woodward,36.4337,-99.3904,9.57,52,0,3.09,1707451855
97,afaahiti,-17.75,-149.2833,26.93,82,97,7.79,1707451513
98,fort mcmurray,56.7268,-111.381,-4.23,86,100,1.03,1707451517
99,kapuskasing,49.4169,-82.4331,4.05,60,100,5.66,1707451511
100,bubaque,11.2833,-15.8333,26.12,76,100,3.58,1707451502
101,jamestown,42.097,-79.2353,9.75,44,0,5.14,1707451259
102,touros,-5.1989,-35.4608,26.92,79,5,4.67,1707451685
103,san patricio,28.017,-97.5169,21.02,92,99,2.57,1707451509
104,sisimiut,66.9395,-53.6735,-16.35,75,85,9.18,1707451497
105,graaff-reinet,-32.2522,24.5308,14.96,71,79,1.32,1707451857
106,lethem,3.3803,-59.7968,27.45,60,94,3.06,1707451857
107,manokwari,-0.8667,134.0833,27.35,81,100,3.03,1707451857
108,edmundston,47.3737,-68.3251,-2.37,63,0,1.54,1707451675
109,kolonia town,6.964,158.206,31.06,66,75,2.57,1707451857
110,hasaki,35.7333,140.8333,11.27,63,100,6.42,1707451505
111,auki,-8.7676,160.7034,26.42,86,100,6.26,1707451769
112,san antonio de pale,-1.4014,5.6325,27.84,78,68,4.26,1707451479
113,enewetak,11.3474,162.3373,26.69,84,100,9.39,1707451494
114,otjiwarongo,-20.4637,16.6477,20.11,56,22,1.92,1707451858
115,hadibu,12.65,54.0333,25.34,69,25,5.75,1707451495
116,abong mbang,3.9833,13.1833,18.37,43,64,1.47,1707451859
117,erenhot,43.6475,111.9767,-13.28,77,6,4.08,1707451859
118,remire-montjoly,4.9167,-52.2667,27.02,83,20,2.57,1707451500
119,iskateley,67.6803,53.1512,-11.1,91,72,4.47,1707451519
120,atherton,53.5237,-2.4935,5.41,91,100,2.24,1707451859
121,ust-nera,64.5667,143.2,-29.35,99,99,1.5,1707451496
122,madimba,-10.4,40.3333,26.4,88,100,4.84,1707451860
123,weyburn,49.6668,-103.8511,-7.06,93,98,5.37,1707451860
124,ghadamis,30.1337,9.5007,12.07,36,9,3.05,1707451860
125,den helder,52.9599,4.7593,7.21,99,100,5.14,1707451860
126,dunedin,-45.8742,170.5036,13.78,81,97,1.79,1707451268
127,sitka,57.0531,-135.33,1.94,75,20,0.0,1707451474
128,port mathurin,-19.6833,63.4167,27.03,73,88,9.99,1707451489
129,nogliki,51.8333,143.1667,-15.92,88,100,4.92,1707451861
130,crane,31.3974,-102.3501,11.73,39,82,4.0,1707451520
131,kiunga,-6.1219,141.2906,31.22,58,99,1.39,1707451727
132,aasiaat,68.7098,-52.8699,-27.99,96,81,4.96,1707451488
133,vila velha,-20.3297,-40.2925,24.41,95,20,1.03,1707451541
134,cuddapah,14.4667,78.8167,27.0,74,20,4.12,1707451862
135,grand baie,-20.0182,57.5802,28.03,75,95,4.47,1707451862
136,chimbarongo,-34.7,-71.05,18.49,41,28,0.8,1707451862
137,champerico,14.3,-91.9167,25.36,67,16,1.67,1707451719
138,inhambane,-23.865,35.3833,26.1,70,96,1.77,1707451746
139,zhangye,38.9342,100.4517,2.24,31,15,1.72,1707451862
140,buala,-8.145,159.5921,26.73,85,100,6.38,1707451474
141,bealanana,-14.55,48.7333,20.25,92,100,0.28,1707451863
142,cockburn town,21.4612,-71.1419,23.61,56,0,7.48,1707451511
143,lihue,21.9789,-159.3672,26.58,72,22,3.67,1707451197
144,kerikeri,-35.2268,173.9474,24.95,73,86,4.1,1707451529
145,hiratacho,35.4333,132.8167,9.01,70,40,3.6,1707451506
146,el calafate,-50.3408,-72.2768,10.48,78,80,3.7,1707451864
147,alice springs,-23.7,133.8833,35.12,20,51,6.17,1707451518
148,port lincoln,-34.7333,135.8667,21.32,55,3,6.59,1707451491
149,nabire,-3.3667,135.4833,31.18,63,91,3.03,1707451864
150,nueva esperanza,15.2667,-87.6,18.79,98,20,1.05,1707451865
151,saint-joseph,-21.3667,55.6167,25.21,84,100,6.5,1707451534
152,cidreira,-30.1811,-50.2056,24.26,92,12,6.19,1707451865
153,vernon,50.2581,-119.2691,2.39,82,73,0.0,1707451322
154,empalme,27.9667,-110.8167,14.08,57,98,1.28,1707451865
155,belvedere marittimo,39.6179,15.8617,8.4,85,22,1.63,1707451866
156,dalnegorsk,44.5604,135.5701,-3.0,80,80,1.79,1707451867
157,sinfra,6.6167,-5.9167,20.51,98,4,0.79,1707451868
158,flying fish cove,-10.4217,105.6791,28.82,89,75,2.57,1707451500
159,mejit,10.2753,170.8646,26.35,75,95,10.13,1707451486
160,sitia,35.2,26.0986,12.77,70,0,0.97,1707451869
161,steamboat springs,40.485,-106.8317,-4.69,91,75,1.54,1707451869
162,fortuna,40.5982,-124.1573,8.7,89,100,0.0,1707451511
163,aiken,33.5835,-81.5998,9.16,80,0,0.0,1707451869
164,saldanha,-33.0117,17.9442,14.03,89,0,2.7,1707451513
165,saipan,15.1355,145.701,29.39,65,20,7.72,1707451212
166,klaksvik,62.2266,-6.589,-1.49,56,100,7.44,1707451497
167,nizhneudinsk,54.9076,99.0276,-4.2,83,100,0.99,1707451870
168,yangjiang,21.85,111.9667,10.96,79,100,3.58,1707451871
169,kokpekty,48.75,82.4,-8.15,95,100,3.12,1707451871
170,anadyr,64.75,177.4833,-9.72,85,75,6.0,1707451499
171,roma,43.2128,-75.4557,8.26,55,0,3.6,1707451871
172,plettenberg bay,-34.0527,23.3716,16.5,76,15,2.4,1707451644
173,sarkand,45.41,79.9186,3.65,74,95,2.92,1707451744
174,saranac lake,44.3295,-74.1313,-0.07,80,0,0.0,1707451799
175,norilsk,69.3535,88.2027,-26.48,87,37,2.25,1707451872
176,sinabang,2.4803,96.3801,29.08,72,64,1.63,1707451700
177,ancud,-41.8697,-73.8203,11.86,86,100,1.29,1707451371
178,tralee,52.2704,-9.7026,9.01,97,100,1.45,1707451873
179,kodiak,57.79,-152.4072,0.73,100,100,11.83,1707451501
180,kijang,35.2442,129.2139,6.95,62,97,1.25,1707451761
181,cole harbour,44.6724,-63.4751,-3.29,93,33,3.18,1707451492
182,santa ana,33.7456,-117.8678,13.36,81,75,2.24,1707451613
183,oranjemund,-28.55,16.4333,16.48,90,15,4.28,1707451541
184,altay,47.8667,88.1167,-8.4,75,53,1.6,1707451874
185,seven pagodas,12.6264,80.1722,28.03,72,16,2.01,1707451874
186,vanimo,-2.6741,141.3028,28.85,75,91,5.52,1707451795
187,thompson,55.7435,-97.8558,-14.91,78,100,4.63,1707451411
188,college,64.8569,-147.8028,-14.19,80,20,0.0,1707451202
189,keflavik,64.0049,-22.5624,-7.76,73,0,2.57,1707451502
190,ha'il,27.5219,41.6907,10.01,43,0,3.09,1707451876
191,happy valley-goose bay,53.3168,-60.3315,-9.83,92,20,2.06,1707451222
192,pacocha,-17.5833,-71.3333,24.07,84,92,2.68,1707451877
193,eirunepe,-6.6603,-69.8736,25.06,89,100,0.98,1707451634
194,angaur state,6.906,134.13,27.15,82,97,7.62,1707451877
195,kalmunai,7.4167,81.8167,27.61,69,65,5.45,1707451877
196,talnakh,69.4865,88.3972,-26.89,84,45,2.36,1707451476
197,lagos de moreno,21.35,-101.9167,15.38,26,1,1.36,1707451879
198,nar'yan-mar,67.6713,53.087,-11.05,91,71,4.47,1707451518
199,horad zhodzina,54.0983,28.3325,-3.85,95,61,1.94,1707451880
200,aitape,-3.1374,142.3475,27.53,85,98,4.65,1707451493
201,isafjordur,66.0755,-23.124,-7.54,78,31,2.07,1707451477
202,forquilhinha,-28.7475,-49.4722,22.5,99,55,0.61,1707451881
203,kavalerovo,44.2661,135.0572,-3.03,68,80,2.24,1707451881
204,torrington,41.8007,-73.1212,2.66,82,96,0.45,1707451881
205,udachny,66.4167,112.4,-31.42,67,100,1.38,1707451345
206,port elizabeth,-33.918,25.5701,19.62,81,0,4.12,1707451474
207,saudarkrokur,65.7461,-19.6394,-16.15,90,14,3.73,1707451882
208,jayrud,33.8074,36.7404,2.7,59,80,0.52,1707451827
209,midvagur,62.0511,-7.1939,-1.54,74,75,4.12,1707451542
210,sakakah,29.9697,40.2064,12.76,40,14,3.53,1707451750
211,sile,41.1754,29.6133,11.37,62,6,3.47,1707451882
212,constantia,44.1833,28.65,5.38,69,11,3.88,1707451485
213,bishkek,42.87,74.59,3.11,64,86,2.34,1707451883
214,madang,-5.2246,145.7966,29.82,72,94,3.37,1707451883
215,ghat,24.9647,10.1728,10.57,29,3,0.8,1707451502
216,xapuri,-10.6517,-68.5044,25.42,78,62,1.32,1707451884
217,kill devil hills,36.0307,-75.676,6.66,96,0,0.0,1707451737
218,ndele,8.4109,20.6473,21.66,26,43,2.12,1707451756
219,karak,31.1667,35.75,8.08,62,82,2.0,1707451884
220,lanivtsi,49.8633,26.0908,-0.22,98,100,3.39,1707451885
221,tazoult-lambese,35.4817,6.2607,8.6,32,99,4.86,1707451886
222,usinsk,65.9939,57.5281,-7.18,80,100,8.94,1707451705
223,sittwe,20.15,92.9,24.22,34,1,3.7,1707451887
224,guichon,-32.35,-57.2,27.69,52,4,2.68,1707451592
225,uliastay,47.7417,96.8444,-12.12,96,94,1.39,1707451888
226,vila vicosa,38.7777,-7.4179,12.04,97,100,3.61,1707451888
227,kourou,5.1552,-52.6478,27.03,89,85,3.12,1707451735
228,ilulissat,69.2167,-51.1,-16.99,66,87,10.8,1707451490
229,aberdeen,57.1437,-2.0981,4.27,74,75,8.75,1707451863
230,ust'-ilimsk,58.0006,102.6619,-11.98,96,98,2.93,1707451889
231,chinde,26.8418,88.0763,11.17,42,20,2.02,1707451889
232,buncrana,55.1333,-7.45,2.12,97,100,8.16,1707451890
233,shimoda,34.6667,138.95,8.95,61,70,5.09,1707451890
234,luau,-10.7073,22.2247,18.5,97,100,1.41,1707451532
235,makarov,48.6333,142.8,-10.02,61,63,2.57,1707451890
236,mafinga,-7.25,35.0667,19.59,95,100,0.24,1707451891
237,sabang,5.8933,95.3214,28.23,72,94,7.19,1707451891
238,ushirombo,-3.4919,31.9639,17.71,90,4,0.88,1707451891
239,trondheim,63.4305,10.3951,-1.95,77,55,1.34,1707451708
240,shingu,33.7333,135.9833,10.64,50,85,2.37,1707451509
241,sao jose da coroa grande,-8.8978,-35.1478,26.75,84,63,4.7,1707451892
242,hithadhoo,-0.6,73.0833,28.15,73,100,7.0,1707451496
243,carutapera,-1.195,-46.02,25.42,91,59,2.78,1707451892
244,fale old settlement,-9.3852,-171.2468,29.14,77,100,6.95,1707451509
245,byron bay,-28.65,153.6167,23.73,87,95,4.55,1707451893
246,ponta delgada,37.7333,-25.6667,16.4,72,20,15.43,1707451893
247,carthage,36.8611,10.3316,11.74,58,20,3.09,1707451893
248,geraldton,-28.7667,114.6,44.23,8,0,7.72,1707451686
249,joshua tree,34.1347,-116.3131,7.45,67,3,1.79,1707451894
250,namtsy,62.7161,129.6658,-35.75,93,97,0.57,1707451779
251,tura,25.5198,90.2201,20.97,27,0,0.55,1707451488
252,pampa,35.5362,-100.9599,10.53,46,0,6.69,1707451655
253,qaqortoq,60.7167,-46.0333,-21.59,82,15,3.03,1707451497
254,okahandja,-21.9833,16.9167,21.57,51,49,1.8,1707451895
255,valdosta,30.8327,-83.2785,13.97,84,0,2.57,1707451852
256,holualoa,19.6228,-155.9522,22.91,80,100,3.6,1707451777
257,derzhavinsk,51.1,66.3167,1.19,99,100,8.88,1707451895
258,gamba,-2.65,10.0,25.83,88,100,2.12,1707451493
259,tabou,4.423,-7.3528,25.98,84,7,3.08,1707451895
260,praia da vitoria,38.7333,-27.0667,14.86,82,40,7.94,1707451487
261,muana,-1.5283,-49.2167,24.2,97,34,1.75,1707451896
262,kuching,1.55,110.3333,30.12,79,40,3.13,1707451896
263,mirny,62.5353,113.9611,-28.76,75,100,0.89,1707451896
264,kavaratti,10.5669,72.642,27.67,73,84,1.35,1707451498
265,ikovka,55.6089,64.9375,-8.77,80,54,7.06,1707451896
266,daru,-9.0763,143.2092,27.95,76,100,4.31,1707451477
267,pinarbasi,38.7229,36.3931,-0.42,94,75,2.09,1707451897
268,kertih,4.5141,103.4483,28.98,62,44,4.42,1707451897
269,vilhena,-12.7406,-60.1458,21.61,94,85,1.52,1707451897
270,vadso,70.0744,29.7487,-12.91,92,75,4.63,1707451481
271,san luis,-33.295,-66.3356,21.52,81,100,4.08,1707451715
272,manta,-0.95,-80.7333,26.88,83,100,6.71,1707451707
273,kyelang,32.5833,77.0333,-11.7,45,0,2.66,1707451898
274,west island,-12.1568,96.8225,29.99,74,40,5.66,1707451424
275,peterhead,57.5058,-1.7981,4.22,62,100,12.93,1707451493
276,havelian,34.0536,73.1657,9.35,30,0,2.21,1707451899
277,luderitz,-26.6481,15.1594,17.1,76,9,7.36,1707451518
278,atafu village,-8.5421,-172.5159,29.27,74,100,5.21,1707451492
279,manaure,11.7751,-72.4445,24.99,73,16,4.49,1707451899
280,antalaha,-14.9003,50.2788,25.46,90,100,1.13,1707451751
281,petropavlovsk-kamchatsky,53.0452,158.6483,-5.68,75,75,3.58,1707451523
282,brezina,33.0989,1.2608,10.49,26,100,3.38,1707451836
283,lompoc,34.6391,-120.4579,10.89,82,0,4.12,1707451242
284,shortandy,51.7006,70.9994,1.05,94,100,10.86,1707451900
285,progreso,21.2833,-89.6667,22.76,64,0,5.96,1707451493
286,krasnyy chikoy,50.3643,108.7512,-12.22,81,49,0.34,1707451900
287,rafraf,37.1904,10.1837,11.17,54,49,5.24,1707451901
288,poco verde,-10.7083,-38.1833,23.68,88,71,3.14,1707451901
289,sinan,34.8262,126.1086,4.57,62,36,7.06,1707451901
290,tofol,5.3248,163.0078,29.88,66,100,5.14,1707451520
291,salinas,36.6777,-121.6555,10.47,85,40,2.57,1707451520
292,cururupu,-1.8283,-44.8683,24.65,94,30,1.76,1707451634
293,port alberni,49.2413,-124.8028,5.91,93,100,0.94,1707451487
294,burley,42.5357,-113.7928,0.11,81,100,4.47,1707451902
295,laghouat,33.8,2.8651,11.2,27,95,6.54,1707451902
296,mingguang,32.7802,117.9638,6.98,61,8,4.25,1707451903
297,vorgashor,67.5833,63.95,-6.69,84,100,5.03,1707451483
298,kapa'a,22.0752,-159.319,25.99,72,100,4.63,1707451722
299,east london,-33.0153,27.9116,19.52,82,100,4.63,1707451233
300,kampene,-3.6,26.6667,20.6,98,21,0.76,1707451903
301,bechar,31.6167,-2.2167,11.61,26,100,3.44,1707451635
302,miandrivazo,-19.5167,45.4667,26.02,85,100,0.15,1707451904
303,freetown,8.484,-13.2299,24.54,89,3,1.71,1707451904
304,kearney,40.6995,-99.0815,4.31,75,0,2.06,1707451791
305,kenai,60.5544,-151.2583,-0.51,89,100,8.23,1707451489
306,fort morgan,40.2503,-103.8,5.36,52,100,2.06,1707451904
307,goondiwindi,-28.55,150.3167,32.19,38,44,2.35,1707451904
308,suileng,47.25,127.0833,-9.49,88,100,0.89,1707451905
309,sijunjung,-0.6876,100.9537,26.84,88,97,0.79,1707451905
310,mount isa,-20.7333,139.5,32.87,52,75,5.66,1707451517
311,inari,68.906,27.0288,-20.89,100,97,1.92,1707451905
312,zhabinka,52.1984,24.0115,-0.02,93,40,0.0,1707451628
313,sydney,-33.8679,151.2073,27.49,65,75,8.75,1707451363
314,popondetta,-8.7537,148.2534,30.83,69,76,2.12,1707451520
315,luwingu,-10.2621,29.9271,16.99,92,100,0.91,1707451906
316,thinadhoo,0.5333,72.9333,27.75,69,98,5.67,1707451496
317,daloa,6.8774,-6.4502,19.72,86,0,0.72,1707451906
318,otofuke,42.9917,143.2003,-0.77,63,57,3.36,1707451906
319,wickenburg,33.9686,-112.7296,5.38,58,4,1.87,1707451613
320,tolanaro,-25.0319,46.9987,23.04,94,20,4.12,1707451485
321,lib,8.3122,167.3766,27.15,80,98,10.19,1707451907
322,kongolo,-5.3833,27.0,21.16,96,7,0.58,1707451907
323,zabid,14.1951,43.3152,25.0,68,54,2.09,1707451907
324,brigantine,39.4101,-74.3646,6.11,86,100,2.24,1707451907
325,barra velha,-26.6322,-48.6847,23.51,95,27,1.18,1707451907
326,port hedland,-20.3167,118.5667,38.03,30,3,4.12,1707451356
327,walla walla,46.0646,-118.343,6.94,69,100,4.12,1707451908
328,vyksa,55.3175,42.1744,-15.62,86,98,5.27,1707451908
329,uribia,11.7139,-72.266,24.62,72,7,3.78,1707451908
330,carnarvon,-24.8667,113.6333,33.8,40,0,4.3,1707451217
331,nizhnesortymskiy,62.4397,71.7603,-14.89,97,95,6.18,1707451908
332,castillos,-34.1667,-53.8333,21.09,95,16,1.75,1707451539
333,swakopmund,-22.6833,14.5333,18.1,90,30,2.4,1707451784
334,moose jaw,50.4001,-105.5344,-5.53,95,99,3.2,1707451909
335,gaalkacyo,6.7697,47.4308,22.92,67,22,6.09,1707451909
336,mount pearl,47.5166,-52.7813,-1.14,96,100,7.2,1707451300
337,qeshm,26.9581,56.2719,13.93,57,0,1.49,1707451909
338,gebeit,21.0667,36.3167,13.74,85,0,0.62,1707451701
339,hilo,19.7297,-155.09,22.93,89,75,3.6,1707451473
340,centenario,-38.8043,-68.14,25.86,31,40,3.09,1707451910
341,ilhabela,-23.7781,-45.3581,25.03,90,35,3.45,1707451910
342,hafar al-batin,28.4328,45.9708,9.32,43,0,1.54,1707451911
343,katsuren-haebaru,26.3369,127.8719,17.43,83,100,4.63,1707451911
344,tromso,69.6496,18.957,-7.99,57,0,6.69,1707451488
345,coro,11.4045,-69.6734,24.76,85,63,1.32,1707451911
346,mlimba,-8.8,35.8167,22.62,95,100,1.08,1707451911
347,trenggalek,-8.05,111.7167,30.8,64,41,2.1,1707451911
348,thunder bay,48.4001,-89.3168,2.26,98,100,2.01,1707451716
349,saint-philippe,-21.3585,55.7679,25.77,86,100,7.96,1707451478
350,balimila,18.25,82.1333,26.83,40,3,1.21,1707451912
351,berrahal,36.8353,7.4533,13.85,42,100,2.78,1707451912
352,arraial do cabo,-22.9661,-42.0278,25.3,89,8,6.17,1707451792
353,guerrero negro,27.9769,-114.0611,15.15,68,79,6.44,1707451500
354,quellon,-43.1167,-73.6167,11.47,87,55,3.01,1707451521
355,monkey bay,-14.0728,34.9201,24.61,80,91,5.45,1707451913
356,north bend,43.4065,-124.2243,6.59,93,20,3.09,1707451913
357,jiuquan,39.7432,98.5174,-0.77,45,99,1.17,1707451913
358,chegdomyn,51.1167,133.0167,-16.78,83,95,0.85,1707451913
359,al buraymi,24.2509,55.7931,13.99,76,0,0.9,1707451913
360,bodaybo,57.8506,114.1933,-9.51,92,100,0.56,1707451535
361,garbahaarrey,3.3289,42.2209,26.57,63,83,4.05,1707451914
362,hami,42.8,93.45,-0.68,54,1,2.85,1707451914
363,tucuma,-0.1833,-50.05,24.61,95,86,2.5,1707451914
364,vredendal,-31.6683,18.5012,14.58,88,0,2.24,1707451533
365,ad dilam,23.9915,47.1627,13.23,27,91,1.97,1707451915
366,kuanda,56.3161,116.0806,-14.21,90,99,0.47,1707451915
367,richards bay,-28.783,32.0377,21.65,86,26,2.27,1707451499
368,kirakira,-10.4544,161.9205,27.46,87,100,8.38,1707451915
369,zhijiang,30.4214,111.7533,9.13,69,44,2.0,1707451915
370,hailey,43.5196,-114.3153,-5.08,86,0,0.89,1707451915
371,naze,28.3667,129.4833,13.49,66,99,6.07,1707451742
372,noosa heads,-26.3833,153.15,28.39,62,48,7.54,1707451916
373,sogndal,61.2283,7.1003,-9.79,92,100,2.06,1707451916
374,phang nga,8.4509,98.5298,32.02,48,30,1.74,1707451916
375,prince rupert,54.3161,-130.3201,3.83,80,100,3.09,1707451454
376,eraan,9.0629,117.7016,29.65,66,89,4.98,1707451917
377,bardai,11.65,7.2333,15.36,20,3,4.05,1707451917
378,mammoth lakes,37.6485,-118.9721,-6.6,68,40,3.09,1707451208
379,cabo san lucas,22.8909,-109.9124,20.98,64,100,4.13,1707451917
380,betio village,1.358,172.9211,30.02,76,95,6.88,1707451917
381,mossel bay,-34.1831,22.146,18.35,78,42,2.84,1707451780
382,arraias,-12.9288,-46.9437,21.46,91,100,0.08,1707451772
383,san julian,21.0167,-102.1667,14.27,24,2,2.39,1707451918
384,reggane,26.7158,0.1714,14.94,19,0,1.63,1707451918
385,zungeru,9.8128,6.1558,22.18,18,26,2.38,1707451918
386,palangkaraya,-2.2,113.8333,34.33,50,40,0.92,1707451919
387,sonoita,31.85,-112.8333,9.84,73,2,1.47,1707451919
388,kingsford,-33.924,151.2275,27.21,64,75,8.75,1707451919
389,verkhnevilyuysk,63.4453,120.3167,-29.38,96,99,1.19,1707451491
390,walvis bay,-22.9575,14.5053,17.53,94,17,2.57,1707451524
391,pemba,-12.974,40.5178,25.45,90,100,3.03,1707451919
392,aver-o-mar,41.4078,-8.7812,14.31,94,75,4.12,1707451920
393,khorixas,-20.3667,14.9667,23.16,49,88,1.66,1707451744
394,quang ngai,15.1167,108.8,23.88,86,100,3.05,1707451920
395,mizhhirya,48.5246,23.5056,6.34,98,100,3.22,1707451920
396,quirinopolis,-18.4483,-50.4517,22.23,91,99,1.15,1707451920
397,el dorado,38.7666,-120.5177,2.13,97,100,1.29,1707451921
398,undurkhaan,47.3194,110.6556,-16.93,83,7,1.93,1707451720
399,juan griego,11.0817,-63.9655,25.1,91,69,2.22,1707451705
400,brisas de zicatela,15.8369,-97.0419,25.1,81,35,0.95,1707451499
401,bikenibeu village,1.3673,173.1241,29.98,74,100,3.6,1707451721
402,bom jardim,-7.7958,-35.5872,23.26,93,39,1.53,1707451921
403,nagqu,31.5,92.0,-12.24,15,0,3.55,1707451511
404,gornyye klyuchi,45.25,133.5,-7.68,84,71,1.7,1707451922
405,quebo,11.3333,-14.9333,22.23,86,100,1.27,1707451922
406,mersa matruh,31.3525,27.2453,10.11,81,0,1.54,1707451496
407,port shepstone,-30.7414,30.455,22.39,90,100,3.91,1707451923
408,nadym,65.5333,72.5167,-8.45,95,100,5.64,1707451523
409,voss,60.623,6.4229,-17.9,97,56,2.56,1707451923
410,mil'kovo,55.6078,37.7956,-14.92,93,6,4.41,1707451923
411,la passe,45.5549,-0.8967,12.77,87,100,9.12,1707451691
412,usogorsk,63.4106,48.6872,-9.63,94,93,2.88,1707451475
413,kirensk,57.7853,108.1119,-7.24,92,100,1.34,1707451924
414,lata,40.1629,-8.3327,12.18,95,100,3.1,1707451695
415,acapulco de juarez,16.8634,-99.8901,24.91,79,13,2.45,1707451223
416,nemuro,43.3236,145.575,-2.83,61,9,3.16,1707451484
417,puerto baquerizo moreno,-0.9,-89.6,25.71,83,100,4.31,1707451364
418,buhe,30.2876,112.2298,8.77,67,13,3.0,1707451925
419,maryborough,-25.5333,152.7,30.62,44,12,5.9,1707451925
420,pacasmayo,-7.4006,-79.5714,25.07,83,65,4.0,1707451925
421,greymouth,-42.4667,171.2,17.24,64,4,3.69,1707451512
422,fasa,28.9383,53.6482,6.76,40,0,0.23,1707451925
423,jabor,5.921,169.6434,27.69,76,100,9.96,1707451926
424,kosigi,15.85,77.2667,27.85,44,4,3.62,1707451926
425,minas de marcona,-15.2119,-75.1103,20.34,84,72,3.56,1707451486
426,san mateo del mar,16.2,-95.0,24.86,69,0,3.42,1707451926
427,manggar,-2.8833,108.2667,29.8,67,50,1.76,1707451507
428,strezhevoy,60.7333,77.5889,-9.26,93,100,5.87,1707451927
429,magistral'nyy,56.1725,107.4458,-7.57,98,100,1.86,1707451500
430,la ronge,55.1001,-105.2842,-6.86,86,100,0.0,1707451523
431,christchurch,-43.5333,172.6333,21.41,63,40,10.8,1707451224
432,nuuk,64.1835,-51.7216,-9.66,79,100,8.75,1707451440
433,chake chake,-5.2459,39.7666,27.01,81,19,3.46,1707451928
434,soe,-9.8607,124.284,27.43,57,71,2.56,1707451638
435,miri,4.4148,114.0089,29.04,71,31,4.23,1707451928
436,palmeiras de goias,-16.805,-49.9258,20.21,94,100,0.67,1707451714
437,lerwick,60.1545,-1.1494,3.0,65,98,6.87,1707451717
438,okha,53.5739,142.9478,-15.79,87,94,5.58,1707451495
439,saacow,1.6279,42.4407,26.21,74,13,5.63,1707451929
440,leava,-14.3,-178.1667,29.29,80,100,8.21,1707451529
441,mareeba,-17.0,145.4333,30.27,89,85,2.31,1707451929
442,taurage,55.2522,22.2897,-2.02,90,13,1.84,1707451929
443,cromer,52.9312,1.2989,10.0,98,100,7.74,1707451930
444,margate,51.3813,1.3862,10.49,94,100,5.36,1707451736
445,broome,42.2506,-75.833,7.21,66,0,3.09,1707451512
446,refahiye,39.9008,38.7667,-0.64,93,100,1.49,1707451930
447,berdigestyakh,62.0989,126.6992,-27.92,94,100,1.13,1707451521
448,bangassou,4.7413,22.8184,20.06,46,3,0.62,1707451931
449,visakhapatnam,17.69,83.2093,25.94,83,40,1.03,1707451931
450,bushehr,28.9684,50.8385,16.05,55,0,3.16,1707451931
451,chibougamau,49.9168,-74.3659,-0.21,86,100,4.12,1707451495
452,dar chioukh,34.8964,3.4854,11.15,29,100,4.35,1707451932
453,moyynkum,44.2914,72.9469,0.36,82,100,3.61,1707451932
454,eureka,40.8021,-124.1637,8.85,86,99,4.54,1707451932
455,caleta de carquin,-11.0925,-77.6267,24.65,84,45,3.38,1707451519
456,mongoumba,3.6415,18.5936,22.38,42,4,1.28,1707451932
457,port douglas,-16.4833,145.4667,29.39,66,81,2.86,1707451536
458,magadan,59.5667,150.8,-20.77,77,16,1.94,1707451933
459,leer,53.2316,7.461,2.18,96,100,1.79,1707451933
460,mawu,29.5923,107.3139,9.68,64,93,1.44,1707451933
461,petauke,-14.2426,31.3253,19.61,92,58,3.01,1707451933
462,impfondo,1.6381,18.0667,22.27,53,67,0.9,1707451934
463,fort st. john,56.2499,-120.8529,-9.06,86,20,1.03,1707451540
464,ola,59.5833,151.2833,-20.22,81,34,2.99,1707451735
465,konstantinovka,49.6167,127.9833,-13.12,84,35,0.56,1707451641
466,gisborne,-38.6533,178.0042,18.28,86,100,3.64,1707451482
467,gubkinskiy,64.434,76.5026,-12.49,97,99,3.93,1707451935
468,sao joao da barra,-21.6403,-41.0511,24.94,91,7,5.54,1707451935
469,taroa,8.7058,171.2275,26.91,75,96,9.14,1707451480
470,sabha,27.0377,14.4283,10.79,35,0,1.7,1707451936
471,annau,37.8876,58.516,12.37,34,0,2.73,1707451936
472,laguna,38.421,-121.4238,7.81,91,0,0.0,1707451936
473,itaueira,-7.6033,-43.0256,25.53,67,60,0.1,1707451937
474,el granada,37.5027,-122.4694,10.18,84,40,2.06,1707451937
475,brookings,44.3114,-96.7984,1.21,88,100,9.26,1707451713
476,novyy urgal,51.0736,132.5642,-18.86,83,99,0.32,1707451938
477,mocimboa,-11.3167,40.35,25.08,94,100,2.2,1707451487
478,konarka,19.9,86.1167,23.22,39,7,4.64,1707451938
479,zuni pueblo,35.0725,-108.8506,-2.65,94,98,8.97,1707451938
480,kendari,-3.945,122.4989,29.15,78,77,2.21,1707451939
481,necochea,-38.5473,-58.7368,19.59,93,100,4.51,1707451450
482,puerto aysen,-45.4,-72.7,9.32,97,33,1.29,1707451770
483,recani,31.2846,-4.2688,16.45,16,100,8.26,1707451699
484,kolondieba,11.0882,-6.8926,23.01,15,1,2.26,1707451940
485,venice,27.0998,-82.4543,16.66,87,0,2.24,1707451835
486,eyl,7.9803,49.8164,24.78,70,8,7.04,1707451940
487,queenstown,-31.8976,26.8753,12.38,92,20,0.54,1707451767
488,hammerfest,70.6634,23.6821,-9.75,67,56,5.66,1707451489
489,salinopolis,-0.6136,-47.3561,26.61,85,86,4.11,1707451738
490,ilheus,-14.7889,-39.0494,22.89,95,100,1.8,1707451941
491,neietsu,37.1845,128.4682,-0.94,45,5,3.05,1707451941
492,fukuecho,32.6881,128.8419,8.83,61,94,8.81,1707451942
493,yuanping,38.7153,112.7575,0.04,54,4,0.32,1707451942
494,bakani,24.2833,76.2333,17.22,28,65,2.62,1707451942
495,portland,45.5234,-122.6762,7.57,84,100,0.45,1707451067
496,enoch,37.7733,-113.0244,-2.7,88,100,2.57,1707451943
497,ellsworth,44.5434,-68.4195,0.91,92,0,0.0,1707451943
498,makokou,0.5738,12.8642,21.33,98,65,0.59,1707451944
499,itoman,26.1247,127.6694,17.43,82,75,7.2,1707451535
500,markovo,57.3206,107.0881,-6.22,92,100,1.53,1707451944
501,sandnessjoen,66.0217,12.6316,-3.71,80,100,11.12,1707451753
502,hauterive,46.0901,3.4459,12.77,73,100,4.51,1707451945
503,pangody,65.85,74.4859,-9.73,95,100,6.18,1707451945
504,pimentel,-6.8367,-79.9342,26.16,78,75,5.14,1707451946
505,solnechnyy,50.7214,136.6319,-17.21,81,87,2.02,1707451533
506,nishinoomote,30.7333,131.0,14.31,54,75,5.14,1707451476
507,raja,8.4596,25.678,21.41,28,3,1.14,1707451946
508,titu,44.65,25.5333,5.83,76,65,3.39,1707451946
509,tomatlan,19.9333,-105.25,18.61,94,3,1.07,1707451947
510,ghanzi,-21.5667,21.7833,24.98,40,96,2.02,1707451947
511,rawson,-43.3002,-65.1023,19.23,52,48,6.4,1707451503
512,deba,10.2086,11.3859,19.37,22,80,2.02,1707451947
513,vorkuta,67.5,64.0,-7.3,87,100,4.53,1707451487
514,buka,40.8108,69.1986,9.63,45,99,0.85,1707451778
515,banda aceh,5.5577,95.3222,29.98,66,96,6.03,1707451948
516,portage la prairie,49.9728,-98.2926,-7.16,69,100,9.51,1707451948
517,alta,69.9689,23.2717,-13.41,66,75,6.69,1707451948
518,glace bay,46.1969,-59.957,-2.24,88,40,2.06,1707451521
519,susuman,62.7833,148.1667,-30.57,98,82,0.89,1707451524
520,macara,-4.3833,-79.95,25.0,88,87,1.34,1707451949
521,boali,4.8005,18.1275,23.82,30,32,1.89,1707451949
522,labasa,-16.4167,179.3833,29.51,78,100,4.58,1707451949
523,marsa alam,25.0757,34.8918,19.13,53,5,2.99,1707451686
524,new norfolk,-42.7826,147.0587,18.72,65,96,2.52,1707451476
525,gizo,-8.103,156.8419,27.81,82,100,6.71,1707451950
526,palikir - national government center,6.9248,158.1611,30.47,66,75,2.57,1707451508
527,tahe,52.3333,124.7333,-10.25,61,9,1.1,1707451950
528,kasba,25.85,87.55,18.28,39,0,1.56,1707451950
529,magdagachi,53.45,125.8,-13.77,69,14,1.65,1707451951
530,misawa,40.6836,141.3597,4.78,46,89,5.3,1707451951
531,westport,41.1415,-73.3579,4.54,88,0,0.0,1707451500
532,prado,-17.3411,-39.2208,23.52,86,100,2.97,1707451528
533,yemva,62.59,50.8594,-13.24,97,90,2.63,1707451952
534,kuta,-8.7233,115.1723,28.97,83,40,2.68,1707451952
535,howrah,22.5892,88.3103,20.0,49,20,4.12,1707451509
536,poronaysk,49.2167,143.1167,-12.56,74,37,1.64,1707451756
537,calderitas,18.55,-88.25,23.14,70,0,3.88,1707451953
538,mermoz boabab,14.7065,-17.4758,23.31,83,0,3.09,1707451519
539,bogale,16.2833,95.4,30.67,31,25,3.97,1707451953
540,saint-pierre-des-corps,47.3833,0.7333,12.43,78,75,7.72,1707451953
541,mili,6.0815,171.735,27.43,71,87,8.77,1707451762
542,cambria,35.5641,-121.0808,10.59,88,57,3.19,1707451954
543,douentza,14.9951,-2.9517,19.56,10,66,1.74,1707451954
544,baoshan,46.5586,131.4244,-6.55,74,47,1.47,1707451954
545,puerto rico,-26.796,-55.024,24.15,82,63,0.55,1707451954
546,polyarnyy,69.1989,33.4478,-20.1,99,100,2.61,1707451510
547,sterling,39.0062,-77.4286,8.16,64,75,3.6,1707451526
548,igarka,67.4667,86.5833,-24.19,98,45,2.52,1707451751
549,smithers,54.7804,-127.1743,-5.82,86,20,2.06,1707451230
550,kununurra,-15.7667,128.7333,33.99,55,75,3.09,1707451483
551,lagunas,-5.2269,-75.6753,24.69,89,26,0.65,1707451955
552,muroto-misakicho,33.2833,134.15,9.74,58,100,1.04,1707451956
553,arpajon-sur-cere,44.9026,2.4581,10.06,88,100,1.09,1707451956
